{"nhits": 615, "parameters": {"dataset": "sanisettesparis", "rows": 10, "start": 0, "facet": ["type", "statut", "arrondissement", "horaire", "acces_pmr", "relais_bebe"], "format": "json", "timezone": "UTC"}, "records": [{"datasetid": "sanisettesparis", "recordid": "b19eb22d1cb48cdb38919e4ef7ba644fc75652c8", "fields": {"acces_pmr": "Oui", "geo_shape": {"coordinates": [[2.287920080193902, 48.8490352798541]], "type": "MultiPoint"}, "type": "SANISETTE", "geo_point_2d": [48.8490352798541, 2.287920080193902], "horaire": "6 h - 1 h", "adresse": "RUE DU THEATRE", "arrondissement": "75015"}, "geometry": {"type": "Point", "coordinates": [2.287920080193902, 48.8490352798541]}, "record_timestamp": "2023-03-06T17:45:14.007Z"}, {"datasetid": "sanisettesparis", "recordid": "32e8a590f5662394bb4ce152bc912d08df338c8a", "fields": {"acces_pmr": "Oui", "geo_shape": {"coordinates": [[2.314293551735249, 48.894846104664346]], "type": "MultiPoint"}, "type": "SANISETTE", "geo_point_2d": [48.894846104664346, 2.314293551735249], "horaire": "6 h - 22 h", "adresse": "132  BOULEVARD BESSIERES", "arrondissement": "75017"}, "geometry": {"type": "Point", "coordinates": [2.314293551735249, 48.894846104664346]}, "record_timestamp": "2023-03-06T17:45:14.007Z"}, {"datasetid": "sanisettesparis", "recordid": "de7af56f9481265ac62bd5cd68a6ae4737c945da", "fields": {"acces_pmr": "Oui", "geo_shape": {"coordinates": [[2.3352214793880184, 48.89178882470804]], "type": "MultiPoint"}, "type": "SANISETTE", "geo_point_2d": [48.89178882470804, 2.3352214793880184], "horaire": "6 h - 22 h", "adresse": "2  RUE MONTCALM", "arrondissement": "75018"}, "geometry": {"type": "Point", "coordinates": [2.3352214793880184, 48.89178882470804]}, "record_timestamp": "2023-03-06T17:45:14.007Z"}, {"datasetid": "sanisettesparis", "recordid": "28c2a792775c1e4a5327e3eb16db3ba00a345de8", "fields": {"acces_pmr": "Oui", "geo_shape": {"coordinates": [[2.3382696834994623, 48.89654892045481]], "type": "MultiPoint"}, "type": "SANISETTE", "geo_point_2d": [48.89654892045481, 2.3382696834994623], "horaire": "24 h / 24", "adresse": "135  RUE DAMREMONT", "arrondissement": "75018"}, "geometry": {"type": "Point", "coordinates": [2.3382696834994623, 48.89654892045481]}, "record_timestamp": "2023-03-06T17:45:14.007Z"}, {"datasetid": "sanisettesparis", "recordid": "d553b98e88e59ffb2b2635d489f1571ce5304a84", "fields": {"acces_pmr": "Oui", "geo_shape": {"coordinates": [[2.35909847681889, 48.88464490930497]], "type": "MultiPoint"}, "type": "SANISETTE", "geo_point_2d": [48.88464490930497, 2.35909847681889], "horaire": "6 h - 22 h", "adresse": "PLACE DE LA CHAPELLE", "arrondissement": "75018"}, "geometry": {"type": "Point", "coordinates": [2.35909847681889, 48.88464490930497]}, "record_timestamp": "2023-03-06T17:45:14.007Z"}, {"datasetid": "sanisettesparis", "recordid": "9a30c59cb5390332ece905fdffa5f84ce0576794", "fields": {"acces_pmr": "Oui", "geo_shape": {"coordinates": [[2.380541294246003, 48.87623316458195]], "type": "MultiPoint"}, "type": "SANISETTE", "geo_point_2d": [48.87623316458195, 2.380541294246003], "horaire": "24 h / 24", "adresse": "face au 45 AVENUE SIMON BOLIVAR", "arrondissement": "75019"}, "geometry": {"type": "Point", "coordinates": [2.380541294246003, 48.87623316458195]}, "record_timestamp": "2023-03-06T17:45:14.007Z"}, {"datasetid": "sanisettesparis", "recordid": "37bd2bbb4c26c692bf8b5c4f25dacdad3519d82b", "fields": {"acces_pmr": "Oui", "geo_shape": {"coordinates": [[2.404517268525504, 48.85704901565088]], "type": "MultiPoint"}, "type": "SANISETTE", "geo_point_2d": [48.85704901565088, 2.404517268525504], "horaire": "6 h - 22 h", "adresse": "face au 121 RUE DES PYRENEES", "arrondissement": "75020"}, "geometry": {"type": "Point", "coordinates": [2.404517268525504, 48.85704901565088]}, "record_timestamp": "2023-03-06T17:45:14.007Z"}, {"datasetid": "sanisettesparis", "recordid": "8140ba4422cd34f6d7b36e76f27c5d51aab4a760", "fields": {"acces_pmr": "Oui", "geo_shape": {"coordinates": [[2.3465356726600564, 48.85797043992713]], "type": "MultiPoint"}, "type": "SANISETTE", "geo_point_2d": [48.85797043992713, 2.3465356726600564], "horaire": "24 h / 24", "adresse": "17  AVENUE VICTORIA", "arrondissement": "75001"}, "geometry": {"type": "Point", "coordinates": [2.3465356726600564, 48.85797043992713]}, "record_timestamp": "2023-03-06T17:45:14.007Z"}, {"datasetid": "sanisettesparis", "recordid": "660ad131bcb0c3c67a4c53f264be5c1b8de78f6f", "fields": {"acces_pmr": "Oui", "geo_shape": {"coordinates": [[2.3525443661897643, 48.866017917530364]], "type": "MultiPoint"}, "type": "SANISETTE", "geo_point_2d": [48.866017917530364, 2.3525443661897643], "horaire": "6 h - 22 h", "adresse": "90  BOULEVARD DE SEBASTOPOL", "arrondissement": "75003"}, "geometry": {"type": "Point", "coordinates": [2.3525443661897643, 48.866017917530364]}, "record_timestamp": "2023-03-06T17:45:14.007Z"}, {"datasetid": "sanisettesparis", "recordid": "e2e7768c7db456df9a706cc6c8410b1e9500eeb6", "fields": {"acces_pmr": "Oui", "geo_shape": {"coordinates": [[2.35271771473359, 48.863093610731895]], "type": "MultiPoint"}, "type": "SANISETTE", "geo_point_2d": [48.863093610731895, 2.35271771473359], "horaire": "6 h - 22 h", "adresse": "face au 34 RUE DU GRENIER SAINT LAZARE", "arrondissement": "75003"}, "geometry": {"type": "Point", "coordinates": [2.35271771473359, 48.863093610731895]}, "record_timestamp": "2023-03-06T17:45:14.007Z"}], "facet_groups": [{"name": "type", "facets": [{"name": "SANISETTE", "count": 434, "state": "displayed", "path": "SANISETTE"}, {"name": "TOILETTES", "count": 164, "state": "displayed", "path": "TOILETTES"}, {"name": "WC PUBLICS PERMANENTS", "count": 7, "state": "displayed", "path": "WC PUBLICS PERMANENTS"}, {"name": "URINOIR", "count": 6, "state": "displayed", "path": "URINOIR"}, {"name": "LAVATORY", "count": 3, "state": "displayed", "path": "LAVATORY"}, {"name": "URINOIR FEMME", "count": 1, "state": "displayed", "path": "URINOIR FEMME"}]}, {"name": "arrondissement", "facets": [{"name": "75018", "count": 67, "state": "displayed", "path": "75018"}, {"name": "75013", "count": 54, "state": "displayed", "path": "75013"}, {"name": "75020", "count": 49, "state": "displayed", "path": "75020"}, {"name": "75014", "count": 47, "state": "displayed", "path": "75014"}, {"name": "75015", "count": 47, "state": "displayed", "path": "75015"}, {"name": "75019", "count": 43, "state": "displayed", "path": "75019"}, {"name": "75012", "count": 41, "state": "displayed", "path": "75012"}, {"name": "75011", "count": 40, "state": "displayed", "path": "75011"}, {"name": "75010", "count": 35, "state": "displayed", "path": "75010"}, {"name": "75016", "count": 31, "state": "displayed", "path": "75016"}, {"name": "75004", "count": 24, "state": "displayed", "path": "75004"}, {"name": "75017", "count": 22, "state": "displayed", "path": "75017"}, {"name": "75005", "count": 21, "state": "displayed", "path": "75005"}, {"name": "75008", "count": 16, "state": "displayed", "path": "75008"}, {"name": "75009", "count": 16, "state": "displayed", "path": "75009"}, {"name": "75007", "count": 15, "state": "displayed", "path": "75007"}, {"name": "75001", "count": 13, "state": "displayed", "path": "75001"}, {"name": "75002", "count": 12, "state": "displayed", "path": "75002"}, {"name": "75003", "count": 12, "state": "displayed", "path": "75003"}, {"name": "75006", "count": 9, "state": "displayed", "path": "75006"}]}, {"name": "horaire", "facets": [{"name": "6 h - 22 h", "count": 246, "state": "displayed", "path": "6 h - 22 h"}, {"name": "Voir fiche \u00e9quipement", "count": 168, "state": "displayed", "path": "Voir fiche \u00e9quipement"}, {"name": "24 h / 24", "count": 156, "state": "displayed", "path": "24 h / 24"}, {"name": "6 h - 1 h", "count": 31, "state": "displayed", "path": "6 h - 1 h"}, {"name": "10h \u00e0 22h", "count": 1, "state": "displayed", "path": "10h \u00e0 22h"}, {"name": "19 h - 7 h", "count": 1, "state": "displayed", "path": "19 h - 7 h"}, {"name": "24h/24", "count": 1, "state": "displayed", "path": "24h/24"}]}, {"name": "acces_pmr", "facets": [{"name": "Oui", "count": 508, "state": "displayed", "path": "Oui"}, {"name": "Non", "count": 106, "state": "displayed", "path": "Non"}]}, {"name": "relais_bebe", "facets": [{"name": "Non", "count": 159, "state": "displayed", "path": "Non"}, {"name": "Oui", "count": 12, "state": "displayed", "path": "Oui"}]}]}